{"points":[{"lat":30.27,"lon":-97.74,"employment":1390975,"median_wage":59592,"gig_share":0.09},{"lat":34.05,"lon":-118.24,"employment":626778,"median_wage":77098,"gig_share":0.13},{"lat":41.88,"lon":-87.63,"employment":1594492,"median_wage":58434,"gig_share":0.2},{"lat":29.76,"lon":-95.37,"employment":1921036,"median_wage":56395,"gig_share":0.18},{"lat":33.45,"lon":-112.07,"employment":116653,"median_wage":48905,"gig_share":0.1},{"lat":32.72,"lon":-117.16,"employment":537925,"median_wage":111237,"gig_share":0.19},{"lat":33.75,"lon":-117.87,"employment":1227016,"median_wage":71062,"gig_share":0.2},{"lat":25.77,"lon":-80.19,"employment":1520785,"median_wage":99987,"gig_share":0.13},{"lat":32.78,"lon":-96.8,"employment":1285779,"median_wage":81463,"gig_share":0.22},{"lat":47.61,"lon":-122.33,"employment":63628,"median_wage":65926,"gig_share":0.2},{"lat":40.71,"lon":-74.01,"employment":763557,"median_wage":81421,"gig_share":0.11},{"lat":37.34,"lon":-121.89,"employment":1651163,"median_wage":89118,"gig_share":0.11},{"lat":42.36,"lon":-71.06,"employment":846765,"median_wage":57676,"gig_share":0.15},{"lat":38.91,"lon":-77.04,"employment":771327,"median_wage":79671,"gig_share":0.22},{"lat":33.75,"lon":-84.39,"employment":1580358,"median_wage":105217,"gig_share":0.18},{"lat":39.74,"lon":-104.98,"employment":1984193,"median_wage":94615,"gig_share":0.1},{"lat":35.23,"lon":-80.84,"employment":664839,"median_wage":92400,"gig_share":0.18},{"lat":36.17,"lon":-115.14,"employment":1527594,"median_wage":54116,"gig_share":0.1},{"lat":45.52,"lon":-122.68,"employment":527937,"median_wage":82930,"gig_share":0.25},{"lat":42.33,"lon":-83.05,"employment":1843731,"median_wage":75512,"gig_share":0.23}],"metros":[{"name":"San Francisco","lat":37.77,"lon":-122.42,"median_wage":112000,"cost_of_living":194,"gig_share":0.18},{"name":"New York","lat":40.71,"lon":-74.01,"median_wage":94000,"cost_of_living":187,"gig_share":0.16},{"name":"Boston","lat":42.36,"lon":-71.06,"median_wage":88000,"cost_of_living":162,"gig_share":0.13},{"name":"Seattle","lat":47.61,"lon":-122.33,"median_wage":98000,"cost_of_living":158,"gig_share":0.17},{"name":"Washington DC","lat":38.91,"lon":-77.04,"median_wage":91000,"cost_of_living":151,"gig_share":0.12},{"name":"Los Angeles","lat":34.05,"lon":-118.24,"median_wage":72000,"cost_of_living":173,"gig_share":0.19},{"name":"Chicago","lat":41.88,"lon":-87.63,"median_wage":68000,"cost_of_living":107,"gig_share":0.14},{"name":"Austin","lat":30.27,"lon":-97.74,"median_wage":75000,"cost_of_living":118,"gig_share":0.22},{"name":"Denver","lat":39.74,"lon":-104.98,"median_wage":71000,"cost_of_living":128,"gig_share":0.2},{"name":"Dallas","lat":32.78,"lon":-96.8,"median_wage":67000,"cost_of_living":103,"gig_share":0.16},{"name":"Houston","lat":29.76,"lon":-95.37,"median_wage":63000,"cost_of_living":96,"gig_share":0.15},{"name":"Atlanta","lat":33.75,"lon":-84.39,"median_wage":65000,"cost_of_living":105,"gig_share":0.18},{"name":"Miami","lat":25.77,"lon":-80.19,"median_wage":58000,"cost_of_living":123,"gig_share":0.21},{"name":"Phoenix","lat":33.45,"lon":-112.07,"median_wage":60000,"cost_of_living":103,"gig_share":0.17},{"name":"Charlotte","lat":35.23,"lon":-80.84,"median_wage":62000,"cost_of_living":98,"gig_share":0.14},{"name":"Portland","lat":45.52,"lon":-122.68,"median_wage":69000,"cost_of_living":140,"gig_share":0.21},{"name":"Minneapolis","lat":44.98,"lon":-93.27,"median_wage":70000,"cost_of_living":112,"gig_share":0.13},{"name":"San Diego","lat":32.72,"lon":-117.16,"median_wage":78000,"cost_of_living":160,"gig_share":0.18},{"name":"Detroit","lat":42.33,"lon":-83.05,"median_wage":55000,"cost_of_living":89,"gig_share":0.11},{"name":"Las Vegas","lat":36.17,"lon":-115.14,"median_wage":52000,"cost_of_living":100,"gig_share":0.24}]}